[
    {
        "id": "KD001",
        "name": "Kaduna State University CBT Centre",
        "state": "Kaduna",
        "lga_or_town": "Kaduna North",
        "full_address": "Tafawa Balewa Way, Unguwan Rimi, Kaduna",
        "landmark": "Near Main Campus Gate",
        "latitude": 10.5105,
        "longitude": 7.4165,
        "verification_status": "confirmed",
        "confidence_score": 98,
        "data_source": "jamb_list",
        "last_verified_at": "2025-01-10T09:00:00Z"
    },
    {
        "id": "LA001",
        "name": "Reliance S & T Limited",
        "state": "Lagos",
        "lga_or_town": "Ikeja",
        "full_address": "123 Allen Avenue, Ikeja, Lagos",
        "landmark": "Opposite Alade Market",
        "latitude": 6.6018,
        "longitude": 3.3515,
        "verification_status": "confirmed",
        "confidence_score": 95,
        "data_source": "jamb_list",
        "last_verified_at": "2025-01-15T10:00:00Z"
    },
    {
        "id": "LA002",
        "name": "Yaba College of Technology CBT Centre",
        "state": "Lagos",
        "lga_or_town": "Yaba",
        "full_address": "Yaba College of Technology, Yaba, Lagos",
        "landmark": "Inside Yabatech Campus",
        "latitude": 6.5165,
        "longitude": 3.3698,
        "verification_status": "auto",
        "confidence_score": 85,
        "data_source": "jamb_list",
        "last_verified_at": "2024-12-20T14:30:00Z"
    },
    {
        "id": "AB001",
        "name": "Abia State Polytechnic",
        "state": "Abia",
        "lga_or_town": "Aba North",
        "full_address": "Aba-Owerri Road, Aba, Abia State",
        "landmark": "Polytechnic Main Entrance",
        "latitude": 5.1054,
        "longitude": 7.3623,
        "verification_status": "unverified",
        "confidence_score": 40,
        "data_source": "crowdsourced",
        "last_verified_at": "2023-11-05T11:00:00Z"
    },
    {
        "id": "FC001",
        "name": "Global Distance Learning Institute",
        "state": "FCT",
        "lga_or_town": "Abuja Municipal",
        "full_address": "Plot 825, Ralph Shodeinde Street, Central Business District, Abuja",
        "landmark": "Near Federal Ministry of Finance",
        "latitude": 9.0579,
        "longitude": 7.4951,
        "verification_status": "confirmed",
        "confidence_score": 99,
        "data_source": "jamb_list",
        "last_verified_at": "2025-01-20T08:00:00Z"
    },
    {
        "id": "KN001",
        "name": "Bayero University Kano, New Site",
        "state": "Kano",
        "lga_or_town": "Gwale",
        "full_address": "Gwarzo Road, Kano",
        "landmark": "Convocation Arena",
        "latitude": 11.9774,
        "longitude": 8.4835,
        "verification_status": "manual",
        "confidence_score": 88,
        "data_source": "jamb_list",
        "last_verified_at": "2024-12-10T12:00:00Z"
    }
]